[{"Coordinates":["39.0574043000","-94.5981116000"],"Cuisine":"BBQ, American","Latitude":"39.0574043000","Longitude":"-94.5981116000","Restaurant_Name":"Q39"},{"Coordinates":["39.0878000000","-94.5848600000"],"Cuisine":"Italian, Desserts","Latitude":"39.0878000000","Longitude":"-94.5848600000","Restaurant_Name":"Lidia\u2019s"},{"Coordinates":["39.0915670000","-94.5562220000"],"Cuisine":"American, BBQ","Latitude":"39.0915670000","Longitude":"-94.5562220000","Restaurant_Name":"Arthur Bryant's Barbeque"},{"Coordinates":["39.0915010000","-94.5786670000"],"Cuisine":"Burger, Pizza","Latitude":"39.0915010000","Longitude":"-94.5786670000","Restaurant_Name":"Grinders"},{"Coordinates":["38.9932200000","-94.5942300000"],"Cuisine":"Italian, Pizza","Latitude":"38.9932200000","Longitude":"-94.5942300000","Restaurant_Name":"Waldo Pizza"},{"Coordinates":["39.0530160000","-94.5907500000"],"Cuisine":"Breakfast","Latitude":"39.0530160000","Longitude":"-94.5907500000","Restaurant_Name":"Beer Kitchen"},{"Coordinates":["39.0878000000","-94.5848600000"],"Cuisine":"BBQ, Seafood, Steak","Latitude":"39.0878000000","Longitude":"-94.5848600000","Restaurant_Name":"Jack Stack Barbecue - Freight House"},{"Coordinates":["39.0510600000","-94.5957390000"],"Cuisine":"American, Burger","Latitude":"39.0510600000","Longitude":"-94.5957390000","Restaurant_Name":"Westport Flea Market Bar and Grill"},{"Coordinates":["39.0535290000","-94.5917710000"],"Cuisine":"Burger, Bar Food","Latitude":"39.0535290000","Longitude":"-94.5917710000","Restaurant_Name":"McCoy's Public House"},{"Coordinates":["39.0879070000","-94.5877150000"],"Cuisine":"Thai","Latitude":"39.0879070000","Longitude":"-94.5877150000","Restaurant_Name":"Lulu's Thai Noodle Shop & Satay Bar"},{"Coordinates":["39.0571990000","-94.6062530000"],"Cuisine":"Asian, Vegetarian","Latitude":"39.0571990000","Longitude":"-94.6062530000","Restaurant_Name":"Blue Koi"},{"Coordinates":["39.0570110000","-94.6062880000"],"Cuisine":"Pizza, Sandwich","Latitude":"39.0570110000","Longitude":"-94.6062880000","Restaurant_Name":"D'Bronx Deli & Pizzeria"},{"Coordinates":["39.0424720000","-94.5921380000"],"Cuisine":"American, Seafood, Steak","Latitude":"39.0424720000","Longitude":"-94.5921380000","Restaurant_Name":"McCormick & Schmick's"},{"Coordinates":["39.0418600000","-94.5890200000"],"Cuisine":"American, BBQ, Seafood","Latitude":"39.0418600000","Longitude":"-94.5890200000","Restaurant_Name":"Jack Stack Barbecue"},{"Coordinates":["39.0222280000","-94.6477960000"],"Cuisine":"Sandwich","Latitude":"39.0222280000","Longitude":"-94.6477960000","Restaurant_Name":"Longboards Wraps & Bowls"},{"Coordinates":["39.0422470000","-94.5904070000"],"Cuisine":"Breakfast","Latitude":"39.0422470000","Longitude":"-94.5904070000","Restaurant_Name":"The Classic Cup"},{"Coordinates":["39.0422900000","-94.5894600000"],"Cuisine":"Brazilian, Steak","Latitude":"39.0422900000","Longitude":"-94.5894600000","Restaurant_Name":"Fogo de Chao Brazilian Steakhouse"},{"Coordinates":["39.0345560000","-94.5871530000"],"Cuisine":"Breakfast, Diner, Sandwich","Latitude":"39.0345560000","Longitude":"-94.5871530000","Restaurant_Name":"Eggtc."},{"Coordinates":["39.0790500000","-94.5759950000"],"Cuisine":"Cafe, Diner, Sandwich","Latitude":"39.0790500000","Longitude":"-94.5759950000","Restaurant_Name":"Succotash"},{"Coordinates":["39.0853800000","-94.5925600000"],"Cuisine":"Spanish, Tapas","Latitude":"39.0853800000","Longitude":"-94.5925600000","Restaurant_Name":"La Bodega"},{"Coordinates":["39.1092640000","-94.5719820000"],"Cuisine":"Italian","Latitude":"39.1092640000","Longitude":"-94.5719820000","Restaurant_Name":"Garozzo's Ristorante"},{"Coordinates":["39.0405380000","-94.5923530000"],"Cuisine":"Asian, Hawaiian, Sushi","Latitude":"39.0405380000","Longitude":"-94.5923530000","Restaurant_Name":"Kona Grill"},{"Coordinates":["39.0530300000","-94.5907200000"],"Cuisine":"American, Mediterranean, Middle Eastern","Latitude":"39.0530300000","Longitude":"-94.5907200000","Restaurant_Name":"Jerusalem Caf\u00e9"},{"Coordinates":["38.8835100000","-94.5863600000"],"Cuisine":"BBQ, Seafood, Steak","Latitude":"38.8835100000","Longitude":"-94.5863600000","Restaurant_Name":"Jack Stack Barbecue - Martin City"},{"Coordinates":["39.1094219000","-94.5846692000"],"Cuisine":"American, Vegetarian","Latitude":"39.1094219000","Longitude":"-94.5846692000","Restaurant_Name":"The Farmhouse"},{"Coordinates":["39.0401557000","-94.5939376000"],"Cuisine":"American","Latitude":"39.0401557000","Longitude":"-94.5939376000","Restaurant_Name":"Gram & Dun"},{"Coordinates":["39.0375900000","-94.5873680000"],"Cuisine":"Pizza, Sandwich","Latitude":"39.0375900000","Longitude":"-94.5873680000","Restaurant_Name":"Spin Neapolitan Pizza"},{"Coordinates":["39.1912400000","-94.5148900000"],"Cuisine":"American","Latitude":"39.1912400000","Longitude":"-94.5148900000","Restaurant_Name":"Stroud's Restaurant & Bar"},{"Coordinates":["39.1094460000","-94.5704020000"],"Cuisine":"Breakfast, Sandwich","Latitude":"39.1094460000","Longitude":"-94.5704020000","Restaurant_Name":"Happy Gillis Caf\u00e9 & Hangout"},{"Coordinates":["39.0414280000","-94.5936600000"],"Cuisine":"Italian","Latitude":"39.0414280000","Longitude":"-94.5936600000","Restaurant_Name":"BRIO Tuscan Grille"},{"Coordinates":["39.0947200000","-94.5932000000"],"Cuisine":"American, Bar Food","Latitude":"39.0947200000","Longitude":"-94.5932000000","Restaurant_Name":"The Westside Local"},{"Coordinates":["39.0571230000","-94.6052300000"],"Cuisine":"American, Breakfast","Latitude":"39.0571230000","Longitude":"-94.6052300000","Restaurant_Name":"Room 39"},{"Coordinates":["39.0926680000","-94.5931980000"],"Cuisine":"Cafe, Coffee and Tea, French, Crepes","Latitude":"39.0926680000","Longitude":"-94.5931980000","Restaurant_Name":"Chez Elle Creperie Coffeehouse"},{"Coordinates":["39.1091400000","-94.5790500000"],"Cuisine":"French","Latitude":"39.1091400000","Longitude":"-94.5790500000","Restaurant_Name":"Le Fou Frog"},{"Coordinates":["39.0970730000","-94.5827490000"],"Cuisine":"American, Seafood","Latitude":"39.0970730000","Longitude":"-94.5827490000","Restaurant_Name":"Bristol Seafood Grill"},{"Coordinates":["39.0928580000","-94.5935340000"],"Cuisine":"Breakfast, Diner, Vegetarian","Latitude":"39.0928580000","Longitude":"-94.5935340000","Restaurant_Name":"Blue Bird Bistro"},{"Coordinates":["39.0425007984","-94.5885434747"],"Cuisine":"Asian, Chinese, Dim Sum","Latitude":"39.0425007984","Longitude":"-94.5885434747","Restaurant_Name":"P.F. Chang's"},{"Coordinates":["39.0345200000","-94.5166300000"],"Cuisine":"BBQ","Latitude":"39.0345200000","Longitude":"-94.5166300000","Restaurant_Name":"LC's Bar-B-Q"},{"Coordinates":["39.1093570000","-94.5732610000"],"Cuisine":"Vietnamese","Latitude":"39.1093570000","Longitude":"-94.5732610000","Restaurant_Name":"Vietnam Cafe"},{"Coordinates":["39.0414100000","-94.5948600000"],"Cuisine":"American, Seafood, Steak","Latitude":"39.0414100000","Longitude":"-94.5948600000","Restaurant_Name":"The Capital Grille"},{"Coordinates":["39.2396030000","-94.5768460000"],"Cuisine":"American, Breakfast, Sandwich","Latitude":"39.2396030000","Longitude":"-94.5768460000","Restaurant_Name":"Kate's Kitchen"},{"Coordinates":["39.0753330000","-94.5762090000"],"Cuisine":"Breakfast, Diner, Sandwich","Latitude":"39.0753330000","Longitude":"-94.5762090000","Restaurant_Name":"You Say Tomato"},{"Coordinates":["39.0571660000","-94.6064450000"],"Cuisine":"Seafood, Southern, Cajun","Latitude":"39.0571660000","Longitude":"-94.6064450000","Restaurant_Name":"Jazz, A Louisiana Kitchen"},{"Coordinates":["39.0346110000","-94.5871500000"],"Cuisine":"Italian, Pizza, Sandwich","Latitude":"39.0346110000","Longitude":"-94.5871500000","Restaurant_Name":"Minsky's Pizza"},{"Coordinates":["39.0840730000","-94.5844400000"],"Cuisine":"American, Seafood, Steak","Latitude":"39.0840730000","Longitude":"-94.5844400000","Restaurant_Name":"Pierpont's at Union Station"},{"Coordinates":["39.0142030000","-94.5920880000"],"Cuisine":"European","Latitude":"39.0142030000","Longitude":"-94.5920880000","Restaurant_Name":"Avenues Bistro"},{"Coordinates":["39.0444530000","-94.5869580000"],"Cuisine":"American, Seafood, Steak","Latitude":"39.0444530000","Longitude":"-94.5869580000","Restaurant_Name":"Cafe Trio Restaurant"},{"Coordinates":["39.0942580000","-94.5832880000"],"Cuisine":"Japanese, Sushi","Latitude":"39.0942580000","Longitude":"-94.5832880000","Restaurant_Name":"Nara"},{"Coordinates":["39.0902650000","-94.5838000000"],"Cuisine":"Spanish, Tapas","Latitude":"39.0902650000","Longitude":"-94.5838000000","Restaurant_Name":"Extra Virgin"},{"Coordinates":["39.0508100000","-94.5968200000"],"Cuisine":"New American","Latitude":"39.0508100000","Longitude":"-94.5968200000","Restaurant_Name":"Bluestem"},{"Coordinates":["39.0421650000","-94.5891280000"],"Cuisine":"American, Desserts, International","Latitude":"39.0421650000","Longitude":"-94.5891280000","Restaurant_Name":"The Cheesecake Factory"},{"Coordinates":["39.0753360000","-94.6030500000"],"Cuisine":"Mexican","Latitude":"39.0753360000","Longitude":"-94.6030500000","Restaurant_Name":"El Patron"},{"Coordinates":["38.9117430000","-94.3769450000"],"Cuisine":"American","Latitude":"38.9117430000","Longitude":"-94.3769450000","Restaurant_Name":"Stuey McBrews"},{"Coordinates":["39.0877250000","-94.5849490000"],"Cuisine":"European, German, Eastern European","Latitude":"39.0877250000","Longitude":"-94.5849490000","Restaurant_Name":"Grunauer"},{"Coordinates":["39.0422680000","-94.5948140000"],"Cuisine":"Vegetarian","Latitude":"39.0422680000","Longitude":"-94.5948140000","Restaurant_Name":"Eden Alley Cafe"},{"Coordinates":["39.0525500000","-94.5910020000"],"Cuisine":"Indian","Latitude":"39.0525500000","Longitude":"-94.5910020000","Restaurant_Name":"Moti Mahal Cusine Of India"},{"Coordinates":["39.0515140000","-94.5889420000"],"Cuisine":"Japanese, Steak","Latitude":"39.0515140000","Longitude":"-94.5889420000","Restaurant_Name":"Gojo Japanese Steak House"},{"Coordinates":["39.1762130000","-94.6129630000"],"Cuisine":"American, Breakfast, Diner","Latitude":"39.1762130000","Longitude":"-94.6129630000","Restaurant_Name":"Corner Cafe"},{"Coordinates":["38.9732170000","-94.5751910000"],"Cuisine":"American, BBQ, Southern","Latitude":"38.9732170000","Longitude":"-94.5751910000","Restaurant_Name":"B.B.'s Lawnside BBQ"},{"Coordinates":["39.0374400000","-94.5873750000"],"Cuisine":"Desserts, Ice Cream","Latitude":"39.0374400000","Longitude":"-94.5873750000","Restaurant_Name":"Glace Artisan Ice Cream"},{"Coordinates":["39.0274700000","-94.5846500000"],"Cuisine":"Coffee and Tea, French","Latitude":"39.0274700000","Longitude":"-94.5846500000","Restaurant_Name":"Aixois"},{"Coordinates":["39.0984380000","-94.5819900000"],"Cuisine":"Bar Food","Latitude":"39.0984380000","Longitude":"-94.5819900000","Restaurant_Name":"Flying Saucer"},{"Coordinates":["39.0346110000","-94.5871500000"],"Cuisine":"Italian, Pizza","Latitude":"39.0346110000","Longitude":"-94.5871500000","Restaurant_Name":"Osteria Il Centro"},{"Coordinates":["39.0974140000","-94.5819900000"],"Cuisine":"Bar Food, Sandwich","Latitude":"39.0974140000","Longitude":"-94.5819900000","Restaurant_Name":"Gordon Biersch Brewery Restaurant"},{"Coordinates":["39.1077960000","-94.5811190000"],"Cuisine":"American, Bar Food","Latitude":"39.1077960000","Longitude":"-94.5811190000","Restaurant_Name":"Harry's Country Club"},{"Coordinates":["39.2514260000","-94.6660210000"],"Cuisine":"Indian, Pakistani","Latitude":"39.2514260000","Longitude":"-94.6660210000","Restaurant_Name":"Swagat Fine Indian Cuisine"},{"Coordinates":["39.0136970000","-94.5905020000"],"Cuisine":"European, Italian, Spanish","Latitude":"39.0136970000","Longitude":"-94.5905020000","Restaurant_Name":"Carmen's Caf\u00e9"},{"Coordinates":["38.9413250000","-94.6057310000"],"Cuisine":"European, Italian, Mediterranean","Latitude":"38.9413250000","Longitude":"-94.6057310000","Restaurant_Name":"Jasper's"},{"Coordinates":["39.0890200000","-94.5868200000"],"Cuisine":"Mexican","Latitude":"39.0890200000","Longitude":"-94.5868200000","Restaurant_Name":"Manny's Mexican Restaurant"},{"Coordinates":["39.1671940000","-94.5211670000"],"Cuisine":"Japanese, Sushi, Vietnamese","Latitude":"39.1671940000","Longitude":"-94.5211670000","Restaurant_Name":"Mr. Le's Sushi"},{"Coordinates":["39.3873730000","-94.5814820000"],"Cuisine":"American","Latitude":"39.3873730000","Longitude":"-94.5814820000","Restaurant_Name":"Justus Drugstore Restaurant"},{"Coordinates":["39.0571220000","-94.6051920000"],"Cuisine":"Chinese","Latitude":"39.0571220000","Longitude":"-94.6051920000","Restaurant_Name":"Po's Dumpling Bar"},{"Coordinates":["39.0515871000","-94.5904253000"],"Cuisine":"Mexican","Latitude":"39.0515871000","Longitude":"-94.5904253000","Restaurant_Name":"Port Fonda"},{"Coordinates":["39.0425440000","-94.5907430000"],"Cuisine":"Desserts, Italian, Pizza","Latitude":"39.0425440000","Longitude":"-94.5907430000","Restaurant_Name":"Buca di Beppo Italian Restaurant"},{"Coordinates":["39.0501290000","-94.6066040000"],"Cuisine":"Italian, Sandwich","Latitude":"39.0501290000","Longitude":"-94.6066040000","Restaurant_Name":"Cupini's"},{"Coordinates":["39.0569800000","-94.6062890000"],"Cuisine":"Asian, Vegetarian, Mongolian","Latitude":"39.0569800000","Longitude":"-94.6062890000","Restaurant_Name":"Genghis Khan Mongolian Grill"},{"Coordinates":["39.2086280000","-94.5764760000"],"Cuisine":"BBQ, Steak","Latitude":"39.2086280000","Longitude":"-94.5764760000","Restaurant_Name":"Smokehouse Barbecue - Gladstone Mo"},{"Coordinates":["39.2092240000","-94.6512740000"],"Cuisine":"Brazilian, Southern, Steak","Latitude":"39.2092240000","Longitude":"-94.6512740000","Restaurant_Name":"Em Chamas Brazilian Grill"},{"Coordinates":["39.1310020000","-94.5776000000"],"Cuisine":"BBQ","Latitude":"39.1310020000","Longitude":"-94.5776000000","Restaurant_Name":"Smokin' Guns BBQ"},{"Coordinates":["38.9261650000","-94.3594550000"],"Cuisine":"Breakfast, Mediterranean","Latitude":"38.9261650000","Longitude":"-94.3594550000","Restaurant_Name":"The Fig Tree Cafe & Bakery"},{"Coordinates":["39.1085190000","-94.5825640000"],"Cuisine":"African, Ethiopian","Latitude":"39.1085190000","Longitude":"-94.5825640000","Restaurant_Name":"Blue Nile Cafe"},{"Coordinates":["39.0574170000","-94.6062880000"],"Cuisine":"Japanese, Sushi","Latitude":"39.0574170000","Longitude":"-94.6062880000","Restaurant_Name":"Friends Sushi & Bento Place"},{"Coordinates":["39.0876850000","-94.5885720000"],"Cuisine":"Vegetarian","Latitude":"39.0876850000","Longitude":"-94.5885720000","Restaurant_Name":"Cafe Gratitude"},{"Coordinates":["39.0760200000","-94.6026600000"],"Cuisine":"Mexican, Vegetarian","Latitude":"39.0760200000","Longitude":"-94.6026600000","Restaurant_Name":"Ponak's Mexican Kitchen"},{"Coordinates":["39.0530730000","-94.5906310000"],"Cuisine":"American, Breakfast, French","Latitude":"39.0530730000","Longitude":"-94.5906310000","Restaurant_Name":"Westport Cafe & Bar"},{"Coordinates":["39.0534801000","-94.5926026000"],"Cuisine":"BBQ, Southern, Bar Food","Latitude":"39.0534801000","Longitude":"-94.5926026000","Restaurant_Name":"Char Bar"},{"Coordinates":["39.2472140000","-94.6628400000"],"Cuisine":"Mexican","Latitude":"39.2472140000","Longitude":"-94.6628400000","Restaurant_Name":"Ixtapa Mexican Cuisine"},{"Coordinates":["39.0569450000","-94.6036240000"],"Cuisine":"Middle Eastern, Vegetarian","Latitude":"39.0569450000","Longitude":"-94.6036240000","Restaurant_Name":"Aladdin Caf\u00e9"},{"Coordinates":["39.0973970000","-94.5831320000"],"Cuisine":"Asian, Japanese, Sushi","Latitude":"39.0973970000","Longitude":"-94.5831320000","Restaurant_Name":"Drunken Fish Power & Light District"},{"Coordinates":["39.1616800000","-94.5767300000"],"Cuisine":"Desserts, Italian, Seafood","Latitude":"39.1616800000","Longitude":"-94.5767300000","Restaurant_Name":"Cascone's Italian"},{"Coordinates":["39.0405600000","-94.5920500000"],"Cuisine":"American, French","Latitude":"39.0405600000","Longitude":"-94.5920500000","Restaurant_Name":"The Melting Pot of Kansas City"},{"Coordinates":["38.9400200000","-94.6091900000"],"Cuisine":"BBQ","Latitude":"38.9400200000","Longitude":"-94.6091900000","Restaurant_Name":"Gates Bar-B-Q"},{"Coordinates":["39.1686900000","-94.5979000000"],"Cuisine":"Latin American, Southern, Steak","Latitude":"39.1686900000","Longitude":"-94.5979000000","Restaurant_Name":"Piropos"},{"Coordinates":["39.0916770000","-94.5848920000"],"Cuisine":"Pizza","Latitude":"39.0916770000","Longitude":"-94.5848920000","Restaurant_Name":"Pizza Bella"},{"Coordinates":["39.0420020000","-94.5855810000"],"Cuisine":"Breakfast, Burger","Latitude":"39.0420020000","Longitude":"-94.5855810000","Restaurant_Name":"Winstead's"},{"Coordinates":["38.9233590000","-94.4019150000"],"Cuisine":"Japanese, Sushi","Latitude":"38.9233590000","Longitude":"-94.4019150000","Restaurant_Name":"Siki Japanese Steak House & Sushi Bar\u200e"},{"Coordinates":["38.9924620000","-94.5940360000"],"Cuisine":"Japanese, Korean, Sushi","Latitude":"38.9924620000","Longitude":"-94.5940360000","Restaurant_Name":"Kokoro Maki House"},{"Coordinates":["39.0404890000","-94.5938060000"],"Cuisine":"American, Steak","Latitude":"39.0404890000","Longitude":"-94.5938060000","Restaurant_Name":"Plaza III Steakhouse"},{"Coordinates":["39.0507740000","-94.5967960000"],"Cuisine":"American, European","Latitude":"39.0507740000","Longitude":"-94.5967960000","Restaurant_Name":"PotPie"},{"Coordinates":["39.0997770000","-94.5828240000"],"Cuisine":"Greek, Mediterranean, Vegetarian","Latitude":"39.0997770000","Longitude":"-94.5828240000","Restaurant_Name":"Zaina"}]